{"type":"FeatureCollection","features":[
{"type":"Feature","id":"01","geometry":{"type":"Point","coordinates":[-86.766233,33.001471]},"properties":{"name":"Alabama", "abbrev":"AL"}},
{"type":"Feature","id":"02","geometry":{"type":"Point","coordinates":[-148.716968,63.288254]},"properties":{"name":"Alaska", "abbrev":"AK"}},
{"type":"Feature","id":"04","geometry":{"type":"Point","coordinates":[-111.828711,33.373506]},"properties":{"name":"Arizona", "abbrev":"AZ"}},
{"type":"Feature","id":"05","geometry":{"type":"Point","coordinates":[-92.576816,35.080251]},"properties":{"name":"Arkansas", "abbrev":"AR"}},
{"type":"Feature","id":"06","geometry":{"type":"Point","coordinates":[-122.355165,35.458606]},"properties":{"name":"California", "abbrev":"CA"}},
{"type":"Feature","id":"08","geometry":{"type":"Point","coordinates":[-105.703628,39.500656]},"properties":{"name":"Colorado", "abbrev":"CO"}},
{"type":"Feature","id":"09","geometry":{"type":"Point","coordinates":[-72.804365,41.704852]},"properties":{"name":"Connecticut", "abbrev":"CT"}},
{"type":"Feature","id":"10","geometry":{"type":"Point","coordinates":[-73.561908,38.397164]},"properties":{"name":"Delaware", "abbrev":"DE"}},
{"type":"Feature","id":"11","geometry":{"type":"Point","coordinates":[-77.014001,38.910092]},"properties":{"name":"District of Columbia", "abbrev":"DC"}},
{"type":"Feature","id":"12","geometry":{"type":"Point","coordinates":[-81.634622,27.795850]},"properties":{"name":"Florida", "abbrev":"FL"}},
{"type":"Feature","id":"13","geometry":{"type":"Point","coordinates":[-83.868887,33.332208]},"properties":{"name":"Georgia", "abbrev":"GA"}},
{"type":"Feature","id":"15","geometry":{"type":"Point","coordinates":[-157.524452,21.146768]},"properties":{"name":"Hawaii", "abbrev":"HI"}},
{"type":"Feature","id":"16","geometry":{"type":"Point","coordinates":[-115.133222,44.242605]},"properties":{"name":"Idaho", "abbrev": "ID"}},
{"type":"Feature","id":"17","geometry":{"type":"Point","coordinates":[-89.380238,40.278216]},"properties":{"name":"Illinois", "abbrev":"IL"}},
{"type":"Feature","id":"18","geometry":{"type":"Point","coordinates":[-86.261515,40.163935]},"properties":{"name":"Indiana", "abbrev":"IN"}},
{"type":"Feature","id":"19","geometry":{"type":"Point","coordinates":[-94.049161,41.960392]},"properties":{"name":"Iowa", "abbrev":"IA"}},
{"type":"Feature","id":"20","geometry":{"type":"Point","coordinates":[-96.536052,38.454303]},"properties":{"name":"Kansas", "abbrev":"KS"}},
{"type":"Feature","id":"21","geometry":{"type":"Point","coordinates":[-85.241819,37.408159]},"properties":{"name":"Kentucky", "abbrev":"KY"}},
{"type":"Feature","id":"22","geometry":{"type":"Point","coordinates":[-92.457133,30.699270]},"properties":{"name":"Louisiana", "abbrev":"LA"}},
{"type":"Feature","id":"23","geometry":{"type":"Point","coordinates":[-69.719931,45.313614]},"properties":{"name":"Maine", "abbrev": "ME"}},
{"type":"Feature","id":"24","geometry":{"type":"Point","coordinates":[-73.797396,37.145653]},"properties":{"name":"Maryland", "abbrev":"MD"}},
{"type":"Feature","id":"25","geometry":{"type":"Point","coordinates":[-68.363628,42.271831]},"properties":{"name":"Massachusetts", "abbrev":"MA"}},
{"type":"Feature","id":"26","geometry":{"type":"Point","coordinates":[-84.670753,42.866412]},"properties":{"name":"Michigan", "abbrev":"MI"}},
{"type":"Feature","id":"27","geometry":{"type":"Point","coordinates":[-94.583003,46.210782]},"properties":{"name":"Minnesota", "abbrev":"MN"}},
{"type":"Feature","id":"28","geometry":{"type":"Point","coordinates":[-89.593164,32.566420]},"properties":{"name":"Mississippi", "abbrev":"MS"}},
{"type":"Feature","id":"29","geometry":{"type":"Point","coordinates":[-92.153770,38.437715]},"properties":{"name":"Missouri", "abbrev":"MO"}},
{"type":"Feature","id":"30","geometry":{"type":"Point","coordinates":[-111.209708,46.813302]},"properties":{"name":"Montana", "abbrev":"MT"}},
{"type":"Feature","id":"31","geometry":{"type":"Point","coordinates":[-97.403875,41.183753]},"properties":{"name":"Nebraska", "abbrev":"NE"}},
{"type":"Feature","id":"32","geometry":{"type":"Point","coordinates":[-116.304648,39.165965]},"properties":{"name":"Nevada", "abbrev":"NV"}},
{"type":"Feature","id":"33","geometry":{"type":"Point","coordinates":[-71.463342,43.153046]},"properties":{"name":"New Hampshire", "abbrev":"NH"}},
{"type":"Feature","id":"34","geometry":{"type":"Point","coordinates":[-72.428055,39.438458]},"properties":{"name":"New Jersey", "abbrev":"NJ"}},
{"type":"Feature","id":"35","geometry":{"type":"Point","coordinates":[-106.342108,34.623012]},"properties":{"name":"New Mexico", "abbrev":"NM"}},
{"type":"Feature","id":"36","geometry":{"type":"Point","coordinates":[-76.645228,44.507548]},"properties":{"name":"New York", "abbrev":"NY"}},
{"type":"Feature","id":"37","geometry":{"type":"Point","coordinates":[-78.667654,35.453334]},"properties":{"name":"North Carolina", "abbrev":"NC"}},
{"type":"Feature","id":"38","geometry":{"type":"Point","coordinates":[-99.334736,47.375168]},"properties":{"name":"North Dakota", "abbrev":"ND"}},
{"type":"Feature","id":"39","geometry":{"type":"Point","coordinates":[-82.749366,40.100854]},"properties":{"name":"Ohio", "abbrev":"OH"}},
{"type":"Feature","id":"40","geometry":{"type":"Point","coordinates":[-96.834653,35.597940]},"properties":{"name":"Oklahoma", "abbrev":"OK"}},
{"type":"Feature","id":"41","geometry":{"type":"Point","coordinates":[-122.579524,44.732273]},"properties":{"name":"Oregon", "abbrev":"OR"}},
{"type":"Feature","id":"42","geometry":{"type":"Point","coordinates":[-78.075925,40.863528]},"properties":{"name":"Pennsylvania", "abbrev":"PA"}},
{"type":"Feature","id":"44","geometry":{"type":"Point","coordinates":[-70.848902,41.003318]},"properties":{"name":"Rhode Island", "abbrev":"RI"}},
{"type":"Feature","id":"45","geometry":{"type":"Point","coordinates":[-81.032387,34.034551]},"properties":{"name":"South Carolina", "abbrev":"SC"}},
{"type":"Feature","id":"46","geometry":{"type":"Point","coordinates":[-99.043799,44.047502]},"properties":{"name":"South Dakota", "abbrev":"SD"}},
{"type":"Feature","id":"47","geometry":{"type":"Point","coordinates":[-86.397772,35.795862]},"properties":{"name":"Tennessee", "abbrev":"TN"}},
{"type":"Feature","id":"48","geometry":{"type":"Point","coordinates":[-98.388631,30.943149]},"properties":{"name":"Texas", "abbrev":"TX"}},
{"type":"Feature","id":"49","geometry":{"type":"Point","coordinates":[-111.900160,40.438987]},"properties":{"name":"Utah", "abbrev":"UT"}},
{"type":"Feature","id":"50","geometry":{"type":"Point","coordinates":[-72.814309,44.081127]},"properties":{"name":"Vermont", "abbrev":"VT"}},
{"type":"Feature","id":"51","geometry":{"type":"Point","coordinates":[-78.635857,37.600345]},"properties":{"name":"Virginia", "abbrev":"VA"}},
{"type":"Feature","id":"53","geometry":{"type":"Point","coordinates":[-120.624501,47.341728]},"properties":{"name":"Washington", "abbrev":"WA"}},
{"type":"Feature","id":"54","geometry":{"type":"Point","coordinates":[-80.820221,38.767195]},"properties":{"name":"West Virginia", "abbrev":"WV"}},
{"type":"Feature","id":"55","geometry":{"type":"Point","coordinates":[-90.001006,44.728544]},"properties":{"name":"Wisconsin", "abbrev":"WI"}},
{"type":"Feature","id":"56","geometry":{"type":"Point","coordinates":[-107.008835,42.675762]},"properties":{"name":"Wyoming", "abbrev":"WY"}}
]}
